[
    {
        "name": "Corneria",
        "category": "Special",
        "city": "Star Fox 64",
        "state": "Enter Star Fox",
        "id": 1001,
        "isFeatured": true,
        "isFavorite": true,
        "park": "Former Army Base",
        "coordinates": {
            "longitude": -73.9712,
            "latitude": 40.7831
        },
        "imageName": "manhattan"
    },
    {
        "name": "Titania",
        "category": "Blue Route",
        "city": "Star Fox 64",
        "state": "The Search for Slippy",
        "id": 1002,
        "isFeatured": false,
        "isFavorite": false,
        "park": "Arid Desert",
        "coordinates": {
            "longitude": -1115.4734
            "latitude": 35.0110
        },
        "imageName": "mojave"
    },
    {
        "name": "Aquas",
        "category": "Red Route",
        "city": "Star Fox 64",
        "state": "Terror of the Deep",
        "id": 1003,
        "isFeatured": false,
        "isFavorite": true,
        "park": "Ocean",
        "coordinates": {
            "longitude": 147.6992,
            "latitude": -18.2871
        },
        "imageName": "reef"
    },
    {
        "name": "Zoness",
        "category": "Red Route",
        "city": "Star Fox 64",
        "state": "Invasion Aftermath",
        "id": 1004,
        "isFeatured": true,
        "isFavorite": true,
        "park": "Toxic Waste Area",
        "coordinates": {
            "longitude": -145.0000,
            "latitude": 38.5000
        },
        "imageName": "trash"
    },
    {
        "name": "Sector X",
        "category": "Blue Route",
        "city": "Star Fox 64",
        "state": "Mystery of the Space Base",
        "id": 1005,
        "isFeatured": false,
        "isFavorite": false,
        "park": "Combat Zone",
        "coordinates": {
            "longitude": -122.0575,
            "latitude": 37.3875
        },
        "imageName": "silicon"
    },
    {
        "name": "Sector Y",
        "category": "Red Route",
        "city": "Star Fox 64",
        "state": "Fierce Melee",
        "id": 1006,
        "isFeatured": false,
        "isFavorite": false,
        "park": "Combat Zone",
        "coordinates": {
            "longitude": -118.7798,
            "latitude": 34.0259
        },
        "imageName": "malibu"
    },
    {
        "name": "Sector Z",
        "category": "Red Route",
        "city": "Star Fox 64",
        "state": "The Ambush of Great Fox",
        "id": 1007,
        "isFeatured": true,
        "isFavorite": false,
        "park": "Combat Zone",
        "coordinates": {
            "longitude": -101.5426,
            "latitude": 35.3193
        },
        "imageName": "pantex",
    },
    {
        "name": "Venom",
        "category": "Special",
        "city": "Star Fox 64",
        "state": "The Final Battle",
        "id": 1008,
        "isFeatured": false,
        "isFavorite": false,
        "park": "Venom: Andross' Homeworld",
        "coordinates": {
            "longitude": -115.1398,
            "latitude": 36.1699
        },
        "imageName": "vegas"
    },
    {
        "name": "Bolse",
        "category": "Blue Route",
        "city": "Star Fox 64",
        "state": "The Last Hurrah",
        "id": 1009,
        "isFeatured": false,
        "isFavorite": false,
        "park": "Defense Outpost",
        "coordinates": {
            "longitude": -77.0199,
            "latitude": 38.8882
        },
        "imageName": "explorer"
    },
    {
        "name": "Area 6",
        "category": "Red Route",
        "city": "Star Fox 64",
        "state": "Through the Middle",
        "id": 1010,
        "isFeatured": false,
        "isFavorite": false,
        "park": "Defense Station",
        "coordinates": {
            "longitude": -115.7930,
            "latitude": 37.2431
        },
        "imageName": "51"
    },
    {
        "name": "Solar",
        "category": "Yellow Route",
        "city": "Star Fox 64",
        "state": "Out of the Frying Pan...",
        "id": 1011,
        "isFeatured": false,
        "isFavorite": false,
        "park": "Lylat's Sun",
        "coordinates": {
            "longitude": -155.2834,
            "latitude": 19,4069
        },
        "imageName": "kilauea"
    },
    {
        "name": "Macbeth",
        "category": "Yellow Route",
        "city": "Star Fox 64",
        "state": "The Forever Train",
        "id": 1012,
        "isFeatured": false,
        "isFavorite": false,
        "park": "Venom Army Supply Base",
        "coordinates": {
            "longitude": -3.1883,
            "latitude": 55.9533
        },
        "imageName": "hogsmeade"
    },
    {
        "name": "Katina",
        "category": "Yellow Route",
        "city": "Star Fox 64",
        "state": "Reunion",
        "id": 1013,
        "isFeatured": false,
        "isFavorite": false,
        "park": "Frontline Base",
        "coordinates": {
            "longitude": -75.1652,
            "latitude": 39.9526
        },
        "imageName": "phili"
    },
    {
        "name": "Fortuna",
        "category": "Blue Route",
        "city": "Star Fox 64",
        "state": "Enter Star Wolf",
        "id": 1014,
        "isFeatured": false,
        "isFavorite": false,
        "park": "Former Defense Post",
        "coordinates": {
            "longitude": -149.9003,
            "latitude": 61.2181
        },
        "imageName": "anchorage"
    },
    {
        "name": "Meteo",
        "category": "Blue Route",
        "city": "Star Fox 64",
        "state": "Into the Asteroid Field",
        "id": 1015,
        "isFeatured": false,
        "isFavorite": false,
        "park": "Asteroid Field",
        "coordinates": {
            "longitude": -97.0000,
            "latitude": 30.0000
        },
        "imageName": "beecave"
    }
]
